name,longitude,latitude,type
서울시청,126.9780,37.5665,government
경복궁,126.9770,37.5796,tourist
창덕궁,126.9910,37.5794,tourist
N서울타워,126.9882,37.5512,tourist
강남역,127.0276,37.4979,subway
홍대입구,126.9239,37.5572,subway
명동,126.9849,37.5636,shopping
이태원,126.9944,37.5347,shopping
코엑스,127.0495,37.5142,shopping
잠실,127.1000,37.5133,residential
